240926-141331 F_cur_pos,F_cntdown,F_smp_flw,F_smp_tmp,F_smp_prs,F_pump_pw,F_psvolts,F_err_rpt,SO_S,SO_D,SO_U,SO_V,SO_W,SO_T,SO_H,SO_P,SO_PI,SO_RO,SO_MD,POPID,POPCHAIN,POPtot,POPf,POPT,POPc1,POPc2,POPc3,POPc4,POPc5,POPc6,POPc7,POPc8,Ubat,CO2,BME_T,BME_H,BME_P,CPUTEMP,RPiT,RPiS,UTCTime,Status,Lat,LatDir,Long,LongDir,Speed,Course,Date,MagVar,MVdir,Inlet_T,Inlet_H,Out1_T,Out1_H,Out2_T,Out2_H,GPSQ,Sats,Hprec,Alt,AltU,Geoidal,UTCTime2,Heading,HeadTrue,Roll,Pitch,Heave,RollAcc,PitchAcc,HeadAcc,GNSSqty,STblk_smp,STblk_ref,STsmp_flw,STsmp_tmp,STsmp_prs,STpump_pw,STpsvolts,STerr_rpt
240926-141333 2.00,0.00,0.00,24.70,947.00,116.00,11.79,0.00,0.04,127.00,-0.03,0.02,-0.00,22.26,66.14,948.68,27.20,0.70,264.00,56.00,1.00,313.00,27.00,123.00,479.00,129.00,77.00,41.00,27.00,13.00,5.00,1.00,0.00,0.00,23.93,47.45,947.86,72.50,51213.60,-TA--- REL=11000011,141316,A,4613.4937,N,721.5836,E,0.01,323.85,260924.00,3.21,E,23.67,52.96,23.03,55.78,23.45,53.64,1.00,11.00,1.38,501.91,M,47.25,141315,142.12,T,-0.51,0.21,0.00,0.08,0.08,19.99,1.00,7973.00,7951.00,-0.01,23.20,946.00,21.00,11.83,0.00,0.00
240926-141335 2.00,0.00,0.00,24.70,948.00,120.00,11.80,0.00,0.03,55.00,-0.02,-0.02,-0.00,23.07,63.02,948.68,27.20,0.70,264.00,56.00,1.00,205.00,37.00,123.00,469.00,134.00,75.00,38.00,27.00,14.00,4.00,3.00,0.00,0.00,23.93,47.45,947.86,73.00,51215.70,-TA--- REL=11000011,141316,A,4613.4937,N,721.5836,E,0.01,323.85,260924.00,3.21,E,23.69,52.94,23.04,55.79,23.42,53.62,1.00,11.00,1.38,501.91,M,47.25,141316,142.12,T,-0.51,0.22,0.00,0.08,0.08,19.97,1.00,7973.00,7951.00,-0.01,23.20,946.00,21.00,11.83,0.00,0.00,1.00
240926-141337 2.00,0.00,0.00,24.70,947.00,124.00,11.81,0.00,0.03,172.00,-0.00,0.03,-0.01,22.44,65.35,948.68,27.20,0.70,264.00,56.00,1.00,299.00,25.00,123.00,473.00,131.00,85.00,52.00,31.00,19.00,2.00,1.00,0.00,0.00,23.93,47.43,947.92,75.70,51217.70,-TA--- REL=11000011,141317,A,4613.4937,N,721.5836,E,0.02,337.83,260924.00,3.21,E,23.69,52.86,23.03,55.80,23.45,53.68,1.00,11.00,1.38,501.91,M,47.25,141316,142.12,T,-0.51,0.22,0.00,0.08,0.08,19.97,1.00,7973.00,7951.00,-0.01,23.20,946.00,21.00,11.83,0.00,0.00,1.00,0.00
240926-141339 2.00,0.00,0.00,24.70,947.00,128.00,11.80,0.00,0.05,140.00,-0.03,0.04,0.01,22.27,66.11,948.68,27.20,0.70,264.00,56.00,1.00,201.00,39.00,123.00,660.00,143.00,63.00,57.00,24.00,13.00,2.00,0.00,0.00,0.00,23.93,47.42,947.86,73.60,51219.80,-TA--- REL=11000011,141317,A,4613.4937,N,721.5836,E,0.02,337.83,260924.00,3.21,E,23.72,52.85,23.04,55.77,23.42,53.64,1.00,11.00,1.38,501.96,M,47.25,141316,142.12,T,-0.51,0.22,0.00,0.08,0.08,19.97,1.00,7973.00,7951.00,-0.01,23.20,946.00,21.00,11.83,0.00,0.00,1.00,0.00
240926-141341 2.00,0.00,0.00,24.70,947.00,132.00,11.79,0.00,0.03,165.00,-0.01,0.02,0.02,22.80,64.09,948.69,27.20,0.70,264.00,56.00,1.00,394.00,24.00,123.00,420.00,136.00,78.00,46.00,33.00,14.00,1.00,2.00,0.00,0.00,23.94,47.43,947.87,74.10,51221.90,-TA--- REL=11000011,141317,A,4613.4937,N,721.5836,E,0.02,337.83,260924.00,3.21,E,23.69,52.84,23.04,55.79,23.42,53.71,1.00,11.00,1.38,501.96,M,47.25,141317,142.11,T,-0.52,0.22,0.00,0.08,0.08,19.95,1.00,7973.00,7951.00,-0.01,23.20,946.00,21.00,11.83,0.00,0.00,1.00,0.00,1.81
240926-141343 2.00,0.00,0.00,24.80,947.00,138.00,11.81,0.00,0.02,168.00,-0.00,0.01,0.01,23.22,62.42,948.69,27.20,0.70,264.00,56.00,1.00,189.00,38.00,123.00,581.00,132.00,68.00,48.00,35.00,13.00,5.00,1.00,0.00,0.00,23.94,47.42,947.82,73.60,51224.00,-TA--- REL=11000011,141318,A,4613.4937,N,721.5836,E,0.06,354.33,260924.00,3.21,E,23.71,52.76,23.04,55.77,23.45,53.69,1.00,11.00,1.38,501.96,M,47.25,141317,142.11,T,-0.52,0.22,0.00,0.08,0.08,19.95,1.00,7973.00,7951.00,-0.01,23.20,946.00,21.00,11.83,0.00,0.00,1.00,0.00,1.81,1.86
240926-141346 2.00,0.00,0.00,24.80,947.00,142.00,11.81,0.00,0.04,161.00,-0.01,0.04,0.02,22.69,64.53,948.69,27.30,0.70,264.00,56.00,1.00,353.00,25.00,124.00,446.00,124.00,63.00,57.00,33.00,15.00,3.00,2.00,0.00,0.00,23.94,47.44,947.87,74.70,51226.00,-TA--- REL=11000011,141318,A,4613.4937,N,721.5836,E,0.06,354.33,260924.00,3.21,E,23.74,52.81,23.04,55.75,23.45,53.69,1.00,12.00,1.06,502.05,M,47.25,141317,142.11,T,-0.52,0.22,0.00,0.08,0.08,19.95,1.00,7973.00,7951.00,-0.01,23.20,946.00,21.00,11.83,0.00,0.00,1.00,0.00,1.81,1.86,2.07
240926-141348 2.00,0.00,0.00,24.70,947.00,146.00,11.80,0.00,0.05,172.00,-0.01,0.05,0.00,23.04,63.12,948.68,27.20,0.70,264.00,56.00,1.00,186.00,39.00,123.00,506.00,118.00,65.00,50.00,21.00,11.00,5.00,0.00,0.00,0.00,23.93,47.43,947.81,76.80,51228.10,-TA--- REL=11000011,141318,A,4613.4937,N,721.5836,E,0.06,354.33,260924.00,3.21,E,23.71,52.76,23.04,55.76,23.48,53.67,1.00,12.00,1.06,502.05,M,47.25,141318,142.12,T,-0.52,0.22,0.00,0.08,0.08,19.92,1.00,7973.00,7951.00,-0.01,23.20,946.00,21.00,11.83,0.00,0.00,1.00,0.00,1.81,1.86,2.07,567292.00
240926-141350 2.00,0.00,0.00,24.70,948.00,150.00,11.79,0.00,0.07,151.00,-0.03,0.06,0.01,22.18,66.52,948.69,27.20,0.70,264.00,56.00,1.00,335.00,23.00,123.00,432.00,133.00,76.00,59.00,38.00,7.00,2.00,0.00,0.00,0.00,23.93,47.47,947.86,77.40,51230.10,-TA--- REL=11000011,141319,A,4613.4937,N,721.5836,E,0.02,299.66,260924.00,3.21,E,23.74,52.74,23.04,55.78,23.45,53.63,1.00,12.00,1.06,502.05,M,47.25,141318,142.12,T,-0.52,0.22,0.00,0.08,0.08,19.92,1.00,7973.00,7951.00,-0.01,23.20,946.00,21.00,11.83,0.00,0.00,1.00,0.00,1.81,1.86,2.07,567292.00,787871.00
240926-141352 2.00,0.00,0.00,24.70,947.00,154.00,11.80,0.00,0.10,166.00,-0.02,0.10,0.00,23.02,63.11,948.69,27.20,0.70,264.00,56.00,1.00,193.00,38.00,123.00,519.00,124.00,68.00,54.00,35.00,18.00,2.00,2.00,0.00,0.00,23.94,47.48,947.87,77.40,51232.20,-TA--- REL=11000011,141319,A,4613.4937,N,721.5836,E,0.02,299.66,260924.00,3.21,E,23.75,52.77,23.03,55.80,23.46,53.65,1.00,13.00,0.86,502.08,M,47.25,141318,142.12,T,-0.52,0.22,0.00,0.08,0.08,19.92,1.00,7973.00,7951.00,-0.01,23.20,946.00,21.00,11.83,0.00,0.00,1.00,0.00,1.81,1.86,2.07,567292.00,787871.00,538475.00
240926-141354 2.00,0.00,0.00,24.70,947.00,158.00,11.80,0.00,0.04,187.00,0.00,0.03,0.01,23.42,61.76,948.69,27.20,0.70,263.00,56.00,1.00,439.00,18.00,123.00,484.00,124.00,62.00,56.00,39.00,13.00,6.00,0.00,0.00,0.00,23.94,47.48,947.82,75.20,51234.30,-TA--- REL=11000011,141319,A,4613.4937,N,721.5836,E,0.02,299.66,260924.00,3.21,E,23.77,52.74,23.01,55.83,23.39,53.73,1.00,13.00,0.86,502.08,M,47.25,141319,142.12,T,-0.52,0.22,0.00,0.09,0.08,20.02,1.00,7973.00,7951.00,-0.01,23.20,946.00,21.00,11.83,0.00,0.00,1.00,0.00,1.81,1.86,2.07,567292.00,787871.00,538475.00,783890.00
240926-141356 2.00,0.00,0.00,24.70,947.00,162.00,11.81,0.00,0.17,90.00,-0.17,0.00,0.01,22.34,65.74,948.70,27.20,0.70,264.00,56.00,1.00,224.00,34.00,123.00,427.00,128.00,65.00,46.00,22.00,13.00,8.00,0.00,0.00,0.00,23.94,47.47,947.93,76.80,51236.30,-TA--- REL=11000011,141320,A,4613.4937,N,721.5835,E,0.06,194.35,260924.00,3.21,E,23.75,52.75,23.00,55.87,23.38,53.80,1.00,13.00,0.86,502.08,M,47.25,141319,142.12,T,-0.52,0.22,0.00,0.09,0.08,20.02,1.00,7973.00,7951.00,-0.01,23.20,946.00,21.00,11.83,0.00,0.00,1.00,0.00,1.81,1.86,2.07,567292.00,787871.00,538475.00,783890.00,515248.00
240926-141358 2.00,0.00,0.00,24.70,947.00,166.00,11.80,0.00,0.04,143.00,-0.03,0.03,0.00,22.67,64.59,948.70,27.20,0.70,263.00,56.00,1.00,368.00,19.00,123.00,418.00,103.00,85.00,40.00,44.00,11.00,3.00,2.00,0.00,0.00,23.94,47.47,947.87,76.80,51238.40,-TA--- REL=11000011,141320,A,4613.4937,N,721.5835,E,0.06,194.35,260924.00,3.21,E,23.78,52.66,23.01,55.86,23.35,53.82,1.00,13.00,0.86,502.08,M,47.25,141319,142.12,T,-0.52,0.22,0.00,0.09,0.08,20.02,1.00,7973.00,7951.00,-0.01,23.20,946.00,21.00,11.83,0.00,0.00,1.00,0.00,1.81,1.86,2.07,567292.00,787871.00,538475.00,783890.00,515248.00,779246.00
240926-141400 2.00,0.00,0.00,24.70,947.00,170.00,11.81,0.00,0.04,110.00,-0.03,0.01,0.02,23.25,62.41,948.70,27.20,0.70,264.00,56.00,1.00,214.00,32.00,123.00,491.00,148.00,83.00,56.00,19.00,10.00,3.00,0.00,0.00,0.00,23.93,47.47,947.89,76.80,51240.40,-TA--- REL=11000011,141320,A,4613.4937,N,721.5835,E,0.06,194.35,260924.00,3.21,E,23.77,52.70,23.03,55.92,23.35,53.91,1.00,13.00,0.86,502.08,M,47.25,141320,142.11,T,-0.52,0.22,0.00,0.09,0.08,20.00,1.00,7973.00,7951.00,-0.01,23.20,946.00,21.00,11.83,0.00,0.00,1.00,0.00,1.81,1.86,2.07,567292.00,787871.00,538475.00,783890.00,515248.00,779246.00
240926-141402 2.00,0.00,0.00,24.80,947.00,174.00,11.80,0.00,0.03,160.00,-0.01,0.02,0.02,23.92,59.81,948.70,27.20,0.70,263.00,56.00,1.00,322.00,25.00,124.00,564.00,151.00,72.00,53.00,35.00,16.00,5.00,1.00,0.00,0.00,23.94,47.47,947.87,77.40,51242.50,-TA--- REL=11000011,141321,A,4613.4937,N,721.5835,E,0.09,190.27,260924.00,3.21,E,23.78,52.64,23.01,55.95,23.30,53.99,1.00,13.00,0.86,502.08,M,47.25,141320,142.11,T,-0.52,0.22,0.00,0.09,0.08,20.00,1.00,7976.00,7951.00,-0.01,23.20,946.00,21.00,11.83,0.00,0.00,1.00,0.00,1.81,1.86,2.07,567292.00,787871.00,538475.00,783890.00,515248.00,779246.00
240926-141404 2.00,0.00,0.00,24.80,947.00,178.00,11.80,0.00,0.07,72.00,-0.06,-0.02,0.02,23.33,61.99,948.71,27.20,0.70,263.00,56.00,1.00,287.00,31.00,123.00,513.00,127.00,74.00,56.00,41.00,15.00,8.00,0.00,0.00,0.00,23.95,47.49,947.89,78.50,51244.60,-TA--- REL=11000011,141321,A,4613.4937,N,721.5835,E,0.09,190.27,260924.00,3.21,E,23.78,52.68,23.00,55.93,23.35,54.02,1.00,13.00,0.87,502.08,M,47.25,141320,142.11,T,-0.52,0.22,0.00,0.09,0.08,20.00,1.00,7976.00,7953.00,-0.01,23.20,946.00,21.00,11.83,0.00,0.00,1.00,0.00,1.81,1.86,2.07,567292.00,787871.00,538475.00,783890.00,515248.00,779246.00
240926-141406 2.00,0.00,0.00,24.80,947.00,182.00,11.80,0.00,0.08,79.00,-0.07,-0.01,0.01,22.01,67.21,948.71,27.20,0.70,262.00,56.00,1.00,268.00,31.00,123.00,539.00,146.00,76.00,36.00,30.00,13.00,6.00,0.00,0.00,0.00,23.96,47.49,947.90,79.00,51246.60,-TA--- REL=11000011,141321,A,4613.4937,N,721.5835,E,0.09,190.27,260924.00,3.21,E,23.77,52.71,23.01,55.91,23.33,54.00,1.00,13.00,0.87,502.08,M,47.25,141321,142.11,T,-0.51,0.22,0.00,0.09,0.08,19.98,1.00,7976.00,7953.00,1.14,23.20,946.00,21.00,11.83,0.00,0.00,1.00,0.00,1.81,1.86,2.07,567292.00,787871.00,538475.00,783890.00,515248.00,779246.00
240926-141408 2.00,0.00,0.00,24.80,947.00,186.00,11.80,0.00,0.06,58.00,-0.05,-0.03,0.01,22.41,65.62,948.71,27.20,0.70,264.00,56.00,1.00,265.00,31.00,124.00,509.00,130.00,53.00,37.00,30.00,22.00,5.00,0.00,0.00,0.00,23.96,47.46,947.85,79.60,51248.70,-TA--- REL=11000011,141322,A,4613.4937,N,721.5835,E,0.14,187.84,260924.00,3.21,E,23.74,52.72,23.04,55.88,23.23,54.08,1.00,13.00,0.87,502.08,M,47.25,141321,142.11,T,-0.51,0.22,0.00,0.09,0.08,19.98,1.00,7976.00,7953.00,1.14,23.20,946.00,21.00,11.83,0.00,0.00,1.00,0.00,1.81,1.86,2.07,567292.00,787871.00,538475.00,783890.00,515248.00,779246.00
240926-141410 2.00,0.00,0.00,24.80,947.00,190.00,11.80,0.00,0.05,45.00,-0.04,-0.04,0.01,22.05,66.97,948.71,27.20,0.70,265.00,56.00,1.00,346.00,22.00,124.00,583.00,149.00,65.00,40.00,24.00,14.00,2.00,0.00,0.00,0.00,23.97,47.45,947.87,79.00,51250.70,-TA--- REL=11000011,141322,A,4613.4937,N,721.5835,E,0.14,187.84,260924.00,3.21,E,23.71,52.74,23.04,55.88,23.21,54.18,1.00,13.00,0.87,502.07,M,47.25,141321,142.11,T,-0.51,0.22,0.00,0.09,0.08,19.98,1.00,7976.00,7953.00,1.14,23.20,937.00,21.00,11.83,0.00,0.00,1.00,0.00,1.81,1.86,2.07,567292.00,787871.00,538475.00,783890.00,515248.00,779246.00
240926-141412 2.00,0.00,0.00,24.80,947.00,194.00,11.80,0.00,0.03,80.00,-0.03,-0.00,0.01,22.31,65.85,948.70,27.20,0.70,264.00,56.00,1.00,265.00,33.00,124.00,481.00,135.00,72.00,43.00,44.00,23.00,5.00,0.00,0.00,0.00,23.97,47.44,947.85,79.60,51252.80,-TA--- REL=11000011,141322,A,4613.4937,N,721.5835,E,0.14,187.84,260924.00,3.21,E,23.71,52.80,23.04,55.83,23.21,54.30,1.00,13.00,0.87,502.07,M,47.25,141322,142.11,T,-0.52,0.22,0.00,0.09,0.08,19.95,1.00,7976.00,7953.00,1.14,23.20,937.00,21.00,11.83,0.00,0.00,1.00,0.00,1.81,1.86,2.07,567292.00,787871.00,538475.00,783890.00,515248.00,779246.00
240926-141414 2.00,0.00,0.00,24.80,947.00,198.00,11.80,0.00,0.02,13.00,-0.00,-0.02,0.02,21.86,67.80,948.71,27.20,0.70,264.00,56.00,1.00,289.00,27.00,123.00,414.00,129.00,61.00,50.00,40.00,16.00,8.00,3.00,0.00,0.00,23.98,47.42,947.86,79.00,51254.90,-TA--- REL=11000011,141323,A,4613.4937,N,721.5835,E,0.14,184.51,260924.00,3.21,E,23.72,52.84,23.03,55.82,23.11,54.42,1.00,13.00,0.87,502.07,M,47.25,141322,142.11,T,-0.52,0.22,0.00,0.09,0.08,19.95,1.00,7976.00,7953.00,1.14,23.20,937.00,21.00,11.74,0.00,0.00,1.00,0.00,1.81,1.86,2.07,567292.00,787871.00,538475.00,783890.00,515248.00,779246.00
240926-141416 2.00,0.00,0.00,24.80,947.00,200.00,11.80,256.00,0.05,92.00,-0.05,0.00,0.01,22.07,66.97,948.71,27.20,0.70,264.00,56.00,1.00,267.00,26.00,124.00,595.00,148.00,68.00,45.00,27.00,14.00,4.00,1.00,0.00,0.00,23.98,47.39,947.89,77.90,51256.90,-TA--- REL=11000011,141323,A,4613.4937,N,721.5835,E,0.14,184.51,260924.00,3.21,E,23.77,52.80,23.03,55.86,23.06,54.54,1.00,13.00,0.87,502.06,M,47.25,141322,142.11,T,-0.52,0.22,0.00,0.09,0.08,19.95,1.00,7976.00,7953.00,1.14,23.20,937.00,21.00,11.74,0.00,0.00,1.00,0.00,1.81,1.86,2.07,567292.00,787871.00,538475.00,783890.00,515248.00,779246.00
240926-141418 2.00,0.00,0.00,24.80,947.00,200.00,11.79,256.00,0.10,94.00,-0.10,0.01,0.02,21.87,67.63,948.71,27.20,0.70,263.00,56.00,1.00,355.00,25.00,124.00,460.00,127.00,70.00,55.00,35.00,9.00,6.00,0.00,0.00,0.00,23.98,47.39,947.89,79.60,51259.00,-TA--- REL=11000011,141323,A,4613.4937,N,721.5835,E,0.14,184.51,260924.00,3.21,E,23.79,52.76,23.03,55.83,23.05,54.66,1.00,13.00,0.87,502.06,M,47.25,141323,142.11,T,-0.51,0.21,0.00,0.09,0.08,20.05,1.00,7976.00,7953.00,1.14,23.20,937.00,21.00,11.74,0.00,0.00,1.00,0.00,1.81,1.86,2.07,567292.00,787871.00,538475.00,783890.00,515248.00,779246.00
240926-141421 2.00,0.00,0.00,24.80,947.00,200.00,11.79,256.00,0.08,28.00,-0.04,-0.07,0.01,21.99,67.24,948.71,27.20,0.70,263.00,56.00,1.00,257.00,29.00,124.00,498.00,131.00,74.00,63.00,33.00,11.00,3.00,1.00,0.00,0.00,23.99,47.37,947.85,81.80,51261.00,-TA--- REL=11000011,141324,A,4613.4937,N,721.5834,E,0.10,192.36,260924.00,3.21,E,23.77,52.69,23.03,55.82,23.05,54.71,1.00,13.00,0.87,502.06,M,47.25,141323,142.11,T,-0.51,0.21,0.00,0.09,0.08,20.05,1.00,7976.00,7953.00,1.14,23.20,937.00,21.00,11.74,0.00,0.00,1.00,0.00,1.81,1.86,2.07,567292.00,787871.00,538475.00,783890.00,515248.00,779246.00
240926-141423 2.00,0.00,0.00,24.80,947.00,200.00,11.80,256.00,0.02,91.00,-0.02,0.00,0.02,23.49,61.41,948.71,27.20,0.70,265.00,56.00,1.00,386.00,21.00,124.00,582.00,151.00,65.00,53.00,36.00,18.00,3.00,0.00,0.00,0.00,23.99,47.36,947.87,79.60,51263.10,-TA--- REL=11000011,141324,A,4613.4937,N,721.5834,E,0.10,192.36,260924.00,3.21,E,23.81,52.66,23.04,55.90,22.99,54.83,1.00,12.00,0.88,502.12,M,47.25,141323,142.11,T,-0.51,0.21,0.00,0.09,0.08,20.05,1.00,7976.00,7953.00,1.14,23.20,937.00,21.00,11.74,0.00,0.00,1.00,0.00,1.81,1.86,2.07,567292.00,787871.00,538475.00,783890.00,515248.00,779246.00
240926-141425 2.00,0.00,0.00,24.80,947.00,200.00,11.79,256.00,0.02,14.00,-0.00,-0.02,0.01,22.82,63.94,948.71,27.20,0.70,263.00,56.00,1.00,290.00,31.00,124.00,477.00,119.00,73.00,50.00,38.00,15.00,7.00,0.00,0.00,0.00,24.00,47.36,947.97,81.20,51265.20,-TA--- REL=11000011,141324,A,4613.4937,N,721.5834,E,0.10,192.36,260924.00,3.21,E,23.81,52.62,23.04,55.89,23.01,54.89,1.00,12.00,0.88,502.12,M,47.25,141324,142.12,T,-0.51,0.21,0.00,0.08,0.08,20.03,1.00,7976.00,7953.00,1.14,23.20,937.00,21.00,11.74,0.00,0.00,1.00,0.00,1.81,1.86,2.07,567292.00,787871.00,538475.00,783890.00,515248.00,779246.00
240926-141427 2.00,0.00,0.00,24.80,947.00,200.00,11.80,256.00,0.04,173.00,-0.00,0.04,0.00,23.49,61.48,948.71,27.20,0.70,263.00,56.00,1.00,354.00,22.00,123.00,394.00,136.00,64.00,51.00,23.00,13.00,4.00,4.00,0.00,0.00,24.00,47.34,947.92,82.30,51267.20,-TA--- REL=11000011,141325,A,4613.4937,N,721.5834,E,0.07,202.27,260924.00,3.21,E,23.81,52.57,23.04,55.90,23.06,54.98,1.00,12.00,0.88,502.12,M,47.25,141324,142.12,T,-0.51,0.21,0.00,0.08,0.08,20.03,1.00,7976.00,7953.00,1.14,23.20,937.00,21.00,11.74,0.00,0.00,1.00,0.00,2.13,1.86,2.07,567292.00,787871.00,538475.00,783890.00,515248.00,779246.00
240926-141429 2.00,0.00,0.00,24.80,947.00,200.00,11.80,256.00,0.03,135.00,-0.01,0.01,0.03,23.95,59.69,948.71,27.20,0.70,263.00,56.00,1.00,215.00,32.00,123.00,449.00,123.00,71.00,45.00,30.00,14.00,6.00,0.00,0.00,0.00,24.01,47.32,947.99,81.20,51269.30,-TA--- REL=11000011,141325,A,4613.4937,N,721.5834,E,0.07,202.27,260924.00,3.21,E,23.82,52.55,23.01,55.92,23.08,54.98,1.00,12.00,1.05,502.18,M,47.25,141324,142.12,T,-0.51,0.21,0.00,0.08,0.08,20.03,1.00,7976.00,7953.00,1.14,23.20,937.00,21.00,11.74,0.00,0.00,1.00,0.00,2.13,2.19,2.07,567292.00,787871.00,538475.00,783890.00,515248.00,779246.00
240926-141431 2.00,0.00,0.00,24.80,947.00,200.00,11.81,256.00,0.03,130.00,-0.03,0.02,0.00,22.69,64.44,948.72,27.20,0.70,264.00,56.00,1.00,275.00,26.00,124.00,518.00,131.00,65.00,52.00,27.00,14.00,7.00,1.00,0.00,0.00,24.00,47.33,947.89,81.80,51271.30,-TA--- REL=11000011,141325,A,4613.4937,N,721.5834,E,0.07,202.27,260924.00,3.21,E,23.85,52.53,23.04,55.89,23.12,54.91,1.00,12.00,1.05,502.18,M,47.25,141325,142.12,T,-0.52,0.21,0.00,0.09,0.08,20.00,1.00,7976.00,7953.00,1.14,23.20,937.00,21.00,11.74,0.00,0.00,1.00,0.00,2.13,2.19,2.58,567292.00,787871.00,538475.00,783890.00,515248.00,779246.00
240926-141433 2.00,0.00,0.00,24.90,947.00,200.00,11.80,256.00,0.06,122.00,-0.05,0.03,0.01,22.78,63.93,948.72,27.30,0.70,263.00,56.00,1.00,260.00,31.00,124.00,523.00,115.00,75.00,48.00,37.00,20.00,2.00,0.00,0.00,0.00,24.01,47.30,947.88,82.30,51273.40,-TA--- REL=11000011,141326,A,4613.4937,N,721.5834,E,0.06,215.99,260924.00,3.21,E,23.85,52.45,23.04,55.92,23.15,54.82,1.00,12.00,1.05,502.18,M,47.25,141325,142.12,T,-0.52,0.21,0.00,0.09,0.08,20.00,1.00,7976.00,7953.00,1.14,23.20,937.00,21.00,11.74,0.00,0.00,1.00,0.00,2.13,2.19,2.58,564253.00,787871.00,538475.00,783890.00,515248.00,779246.00
240926-141435 2.00,0.00,0.00,24.90,947.00,200.00,11.80,256.00,0.04,107.00,-0.04,0.01,0.01,23.10,62.81,948.71,27.20,0.70,263.00,56.00,1.00,256.00,32.00,124.00,575.00,130.00,74.00,50.00,28.00,13.00,1.00,1.00,0.00,0.00,24.01,47.27,947.85,81.80,51275.50,-TA--- REL=11000011,141326,A,4613.4937,N,721.5834,E,0.06,215.99,260924.00,3.21,E,23.82,52.47,23.03,55.85,23.16,54.71,1.00,14.00,0.85,502.21,M,47.25,141325,142.12,T,-0.52,0.21,0.00,0.09,0.08,20.00,1.00,7976.00,7953.00,1.14,23.20,937.00,21.00,11.74,0.00,0.00,1.00,0.00,2.13,2.19,2.58,564253.00,783215.00,538475.00,783890.00,515248.00,779246.00
240926-141437 2.00,0.00,0.00,24.90,947.00,200.00,11.81,256.00,0.04,92.00,-0.04,0.00,0.01,23.16,62.56,948.71,27.20,0.70,263.00,56.00,1.00,259.00,33.00,124.00,449.00,142.00,66.00,40.00,41.00,12.00,3.00,0.00,0.00,0.00,24.01,47.29,947.89,81.80,51277.50,-TA--- REL=11000011,141326,A,4613.4937,N,721.5834,E,0.06,215.99,260924.00,3.21,E,23.84,52.44,23.07,55.84,23.21,54.61,1.00,14.00,0.85,502.21,M,47.25,141326,142.12,T,-0.52,0.22,0.00,0.08,0.08,19.98,1.00,7976.00,7953.00,1.14,23.20,937.00,21.00,11.74,0.00,0.00,1.00,0.00,2.13,2.19,2.58,564253.00,783215.00,536937.00,783890.00,515248.00,779246.00
240926-141439 2.00,0.00,0.00,24.90,947.00,200.00,11.81,256.00,0.05,102.00,-0.04,0.01,0.01,22.83,63.92,948.71,27.20,0.70,263.00,56.00,1.00,291.00,25.00,124.00,493.00,116.00,75.00,41.00,49.00,14.00,3.00,2.00,0.00,0.00,24.01,47.26,947.83,81.80,51279.60,-TA--- REL=11000011,141327,A,4613.4937,N,721.5834,E,0.06,209.47,260924.00,3.21,E,23.84,52.41,23.04,55.77,23.18,54.60,1.00,14.00,0.85,502.21,M,47.25,141326,142.12,T,-0.52,0.22,0.00,0.08,0.08,19.98,1.00,7976.00,7953.00,1.14,23.20,937.00,21.00,11.74,0.00,0.00,1.00,0.00,2.13,2.19,2.58,564253.00,783215.00,536937.00,781667.00,515248.00,779246.00
240926-141441 2.00,0.00,0.00,24.90,947.00,200.00,11.81,256.00,0.07,145.00,-0.04,0.06,0.00,22.42,65.44,948.72,27.20,0.70,264.00,56.00,1.00,228.00,34.00,124.00,465.00,121.00,70.00,51.00,41.00,13.00,5.00,0.00,0.00,0.00,24.02,47.25,947.81,82.30,51281.60,-TA--- REL=11000011,141327,A,4613.4937,N,721.5834,E,0.06,209.47,260924.00,3.21,E,23.86,52.40,23.07,55.76,23.18,54.54,1.00,14.00,0.85,502.24,M,47.25,141326,142.12,T,-0.52,0.22,0.00,0.08,0.08,19.98,1.00,7976.00,7953.00,1.14,23.20,937.00,21.00,11.74,0.00,0.00,1.00,0.00,2.13,2.19,2.58,564253.00,783215.00,536937.00,781667.00,514391.00,779246.00
240926-141443 2.00,0.00,0.00,24.90,947.00,200.00,11.81,256.00,0.04,76.00,-0.04,-0.01,0.01,22.90,63.63,948.71,27.20,0.70,264.00,56.00,1.00,318.00,24.00,124.00,538.00,105.00,72.00,43.00,25.00,7.00,2.00,0.00,0.00,0.00,24.03,47.23,947.88,82.30,51283.70,-TA--- REL=11000011,141327,A,4613.4937,N,721.5834,E,0.06,209.47,260924.00,3.21,E,23.86,52.37,23.09,55.69,23.16,54.43,1.00,14.00,0.85,502.24,M,47.25,141327,142.11,T,-0.52,0.21,0.00,0.08,0.08,19.95,1.00,7976.00,7953.00,1.14,23.20,937.00,21.00,11.74,0.00,0.00,1.00,0.00,2.13,2.19,2.58,564253.00,783215.00,536937.00,781667.00,514391.00,777954.00
240926-141445 2.00,0.00,0.00,24.90,947.00,200.00,11.80,256.00,0.04,2.00,-0.00,-0.04,0.01,22.74,64.30,948.72,27.20,0.70,263.00,56.00,1.00,267.00,29.00,124.00,410.00,102.00,75.00,39.00,22.00,10.00,2.00,0.00,0.00,0.00,24.03,47.23,947.88,82.90,51285.80,-TA--- REL=11000011,141328,A,4613.4937,N,721.5834,E,0.06,194.74,260924.00,3.21,E,23.89,52.34,23.09,55.69,23.21,54.41,1.00,14.00,0.85,502.24,M,47.25,141327,142.11,T,-0.52,0.21,0.00,0.08,0.08,19.95,1.00,7976.00,7953.00,1.14,23.20,937.00,21.00,11.74,0.00,0.00,1.00,0.00,2.13,2.19,2.58,564253.00,783215.00,536937.00,781667.00,514391.00,777954.00
240926-141447 2.00,0.00,0.00,25.00,947.00,200.00,11.80,256.00,0.03,211.00,0.01,0.02,0.01,23.62,60.87,948.71,27.20,0.70,264.00,56.00,1.00,255.00,25.00,124.00,429.00,133.00,54.00,24.00,23.00,15.00,2.00,1.00,0.00,0.00,24.04,47.20,947.90,83.40,51287.80,-TA--- REL=11000011,141328,A,4613.4937,N,721.5834,E,0.06,194.74,260924.00,3.21,E,23.91,52.29,23.09,55.67,23.22,54.42,1.00,14.00,0.85,502.26,M,47.25,141327,142.11,T,-0.52,0.21,0.00,0.08,0.08,19.95,1.00,7976.00,7953.00,1.14,23.20,937.00,21.00,11.74,0.00,0.00,1.00,0.00,2.13,2.19,2.58,564253.00,783215.00,536937.00,781667.00,514391.00,777954.00
240926-141449 2.00,0.00,0.00,25.00,947.00,200.00,11.81,256.00,0.06,127.00,-0.05,0.04,0.02,23.22,62.39,948.71,27.20,0.70,264.00,56.00,1.00,191.00,35.00,124.00,466.00,113.00,79.00,39.00,25.00,12.00,0.00,2.00,0.00,0.00,24.03,47.16,947.84,82.90,51289.90,-TA--- REL=11000011,141328,A,4613.4937,N,721.5834,E,0.06,194.74,260924.00,3.21,E,23.89,52.32,23.09,55.70,23.23,54.36,1.00,14.00,0.85,502.26,M,47.25,141328,142.11,T,-0.52,0.22,0.00,0.08,0.08,20.04,1.00,7976.00,7954.00,1.14,23.20,937.00,21.00,11.74,0.00,0.00,1.00,0.00,2.13,2.19,2.58,564253.00,783215.00,536937.00,781667.00,514391.00,777954.00
240926-141451 2.00,0.00,0.00,25.00,947.00,200.00,11.80,256.00,0.05,147.00,-0.03,0.04,0.01,22.46,65.30,948.72,27.20,0.70,263.00,56.00,1.00,421.00,17.00,123.00,502.00,137.00,64.00,53.00,26.00,7.00,1.00,1.00,0.00,0.00,24.04,47.15,947.88,81.80,51291.90,-TA--- REL=11000011,141329,A,4613.4937,N,721.5833,E,0.06,193.56,260924.00,3.21,E,23.91,52.27,23.09,55.69,23.26,54.31,1.00,14.00,0.85,502.26,M,47.25,141328,142.11,T,-0.52,0.22,0.00,0.08,0.08,20.04,1.00,7976.00,7954.00,1.03,23.20,937.00,21.00,11.74,0.00,0.00,1.00,0.00,2.13,2.19,2.58,564253.00,783215.00,536937.00,781667.00,514391.00,777954.00
240926-141453 2.00,0.00,0.00,25.00,947.00,200.00,11.80,256.00,0.08,158.00,-0.03,0.08,0.00,21.94,67.44,948.72,27.20,0.70,263.00,56.00,1.00,202.00,39.00,124.00,520.00,109.00,54.00,47.00,34.00,6.00,1.00,3.00,0.00,0.00,24.05,47.11,947.86,82.90,51294.00,-TA--- REL=11000011,141329,A,4613.4937,N,721.5833,E,0.06,193.56,260924.00,3.21,E,23.89,52.25,23.06,55.69,23.25,54.24,1.00,13.00,0.87,502.29,M,47.25,141328,142.11,T,-0.52,0.22,0.00,0.08,0.08,20.04,1.00,7976.00,7954.00,1.03,23.20,937.00,21.00,11.74,0.00,0.00,1.00,0.00,2.13,2.19,2.58,564253.00,783215.00,536937.00,781667.00,514391.00,777954.00
240926-141456 2.00,0.00,0.00,24.90,947.00,200.00,11.80,256.00,0.10,155.00,-0.04,0.09,0.00,22.32,65.95,948.72,27.20,0.70,263.00,56.00,1.00,421.00,18.00,124.00,590.00,126.00,69.00,46.00,31.00,16.00,4.00,1.00,0.00,0.00,24.05,47.13,947.86,82.90,51296.10,-TA--- REL=11000011,141329,A,4613.4937,N,721.5833,E,0.06,193.56,260924.00,3.21,E,23.88,52.27,23.04,55.70,23.27,54.18,1.00,13.00,0.87,502.29,M,47.25,141329,142.10,T,-0.52,0.21,0.00,0.08,0.08,20.00,1.00,7976.00,7954.00,1.03,23.20,940.00,21.00,11.74,0.00,0.00,1.00,0.00,2.13,2.19,2.58,564253.00,783215.00,536937.00,781667.00,514391.00,777954.00
240926-141458 2.00,0.00,0.00,24.90,947.00,200.00,11.80,256.00,0.06,124.00,-0.05,0.03,0.00,21.81,68.05,948.72,27.20,0.70,263.00,56.00,1.00,216.00,40.00,124.00,470.00,106.00,60.00,58.00,41.00,8.00,0.00,2.00,0.00,0.00,24.05,47.13,947.81,82.90,51298.10,-TA--- REL=11000011,141330,A,4613.4937,N,721.5833,E,0.04,189.56,260924.00,3.21,E,23.86,52.27,23.06,55.63,23.27,54.12,1.00,13.00,0.87,502.29,M,47.25,141329,142.10,T,-0.52,0.21,0.00,0.08,0.08,20.00,1.00,7976.00,7954.00,1.03,23.20,940.00,18.00,11.74,0.00,0.00,1.00,0.00,2.13,2.19,2.58,564253.00,783215.00,536937.00,781667.00,514391.00,777954.00
240926-141500 2.00,0.00,0.00,24.90,947.00,200.00,11.80,256.00,0.06,156.00,-0.03,0.06,0.01,21.94,67.23,948.72,27.20,0.70,263.00,56.00,1.00,382.00,19.00,124.00,501.00,121.00,84.00,52.00,27.00,18.00,2.00,0.00,0.00,0.00,24.05,47.15,947.89,82.30,51300.20,-TA--- REL=11000011,141330,A,4613.4937,N,721.5833,E,0.04,189.56,260924.00,3.21,E,23.89,52.30,23.06,55.67,23.30,54.06,1.00,13.00,0.87,502.34,M,47.25,141329,142.10,T,-0.52,0.21,0.00,0.08,0.08,20.00,1.00,7976.00,7954.00,1.03,23.20,940.00,18.00,11.71,0.00,0.00,1.00,0.00,2.13,2.19,2.58,564253.00,783215.00,536937.00,781667.00,514391.00,777954.00
240926-141502 2.00,0.00,0.00,24.90,948.00,200.00,11.80,256.00,0.07,134.00,-0.05,0.04,0.01,21.97,67.39,948.72,27.20,0.70,264.00,56.00,1.00,212.00,37.00,123.00,583.00,130.00,66.00,31.00,35.00,20.00,2.00,0.00,0.00,0.00,24.05,47.13,947.90,83.40,51302.20,-TA--- REL=11000011,141330,A,4613.4937,N,721.5833,E,0.04,189.56,260924.00,3.21,E,23.91,52.33,23.04,55.68,23.33,54.04,1.00,13.00,0.87,502.34,M,47.25,141330,142.10,T,-0.52,0.21,0.00,0.08,0.08,19.97,1.00,7976.00,7954.00,1.03,23.20,940.00,18.00,11.71,0.00,0.00,1.00,0.00,2.13,2.19,2.58,564253.00,783215.00,536937.00,781667.00,514391.00,777954.00
240926-141504 2.00,0.00,0.00,24.90,947.00,200.00,11.80,256.00,0.03,105.00,-0.03,0.01,0.02,22.13,66.65,948.72,27.20,0.70,265.00,56.00,1.00,386.00,22.00,123.00,445.00,130.00,77.00,38.00,33.00,11.00,2.00,0.00,0.00,0.00,24.05,47.15,947.91,82.30,51304.30,-TA--- REL=11000011,141331,A,4613.4937,N,721.5833,E,0.05,180.37,260924.00,3.21,E,23.88,52.27,23.04,55.71,23.32,54.02,1.00,13.00,0.87,502.34,M,47.25,141330,142.10,T,-0.52,0.21,0.00,0.08,0.08,19.97,1.00,7976.00,7954.00,1.03,23.20,940.00,18.00,11.71,0.00,0.00,1.00,0.00,2.13,2.19,2.58,564253.00,783215.00,536937.00,781667.00,514391.00,777954.00
240926-141506 2.00,0.00,0.00,24.90,947.00,200.00,11.80,256.00,0.06,170.00,-0.01,0.05,0.02,22.33,65.86,948.72,27.20,0.70,264.00,56.00,1.00,202.00,36.00,124.00,499.00,144.00,66.00,44.00,31.00,13.00,4.00,1.00,0.00,0.00,24.05,47.14,947.89,84.50,51306.40,-TA--- REL=11000011,141331,A,4613.4937,N,721.5833,E,0.05,180.37,260924.00,3.21,E,23.88,52.31,23.03,55.68,23.33,54.01,1.00,13.00,0.87,502.37,M,47.25,141330,142.10,T,-0.52,0.21,0.00,0.08,0.08,19.97,1.00,7976.00,7954.00,1.03,23.20,940.00,18.00,11.71,0.00,0.00,1.00,0.00,2.13,2.19,2.58,564253.00,783215.00,536937.00,781667.00,514391.00,777954.00
240926-141508 2.00,0.00,0.00,24.90,947.00,200.00,11.80,256.00,0.05,173.00,-0.01,0.05,-0.01,22.37,65.77,948.72,27.20,0.70,265.00,56.00,1.00,459.00,17.00,123.00,501.00,127.00,55.00,44.00,26.00,13.00,3.00,1.00,0.00,0.00,24.05,47.14,947.87,83.40,51308.40,-TA--- REL=11000011,141331,A,4613.4937,N,721.5833,E,0.05,180.37,260924.00,3.21,E,23.86,52.32,23.03,55.71,23.35,53.99,1.00,13.00,0.87,502.37,M,47.25,141331,142.09,T,-0.52,0.20,0.00,0.08,0.08,19.93,1.00,7976.00,7954.00,1.03,23.20,940.00,18.00,11.71,0.00,0.00,1.00,0.00,2.13,2.19,2.58,564253.00,783215.00,536937.00,781667.00,514391.00,777954.00
240926-141510 2.00,0.00,0.00,24.90,947.00,200.00,11.81,256.00,0.04,172.00,-0.00,0.03,0.03,22.50,65.31,948.72,27.20,0.70,266.00,56.00,1.00,225.00,34.00,123.00,540.00,149.00,65.00,49.00,36.00,17.00,2.00,1.00,0.00,0.00,24.05,47.15,947.83,83.40,51310.50,-TA--- REL=11000011,141332,A,4613.4937,N,721.5833,E,0.02,187.32,260924.00,3.21,E,23.88,52.31,23.04,55.73,23.36,53.94,1.00,13.00,0.87,502.37,M,47.25,141331,142.09,T,-0.52,0.20,0.00,0.08,0.08,19.93,1.00,7976.00,7954.00,1.03,23.20,940.00,18.00,11.71,0.00,0.00,1.00,0.00,2.13,2.19,2.58,564253.00,783215.00,536937.00,781667.00,514391.00,777954.00
240926-141512 2.00,0.00,0.00,24.90,947.00,200.00,11.80,256.00,0.06,74.00,-0.05,-0.01,0.02,23.35,61.87,948.72,27.20,0.70,265.00,56.00,1.00,454.00,18.00,123.00,534.00,108.00,71.00,44.00,24.00,14.00,3.00,0.00,0.00,0.00,24.05,47.13,947.84,82.30,51312.50,-TA--- REL=11000011,141332,A,4613.4937,N,721.5833,E,0.02,187.32,260924.00,3.21,E,23.88,52.29,23.07,55.72,23.38,53.87,1.00,13.00,0.87,502.42,M,47.25,141331,142.09,T,-0.52,0.20,0.00,0.08,0.08,19.93,1.00,7976.00,7954.00,1.03,23.20,940.00,18.00,11.71,0.00,0.00,1.00,0.00,2.46,2.19,2.58,564253.00,783215.00,536937.00,781667.00,514391.00,777954.00
240926-141514 2.00,0.00,0.00,24.90,947.00,200.00,11.80,256.00,0.04,141.00,-0.02,0.02,0.02,23.17,62.60,948.72,27.20,0.70,264.00,56.00,1.00,238.00,33.00,123.00,469.00,116.00,73.00,51.00,37.00,17.00,3.00,3.00,0.00,0.00,24.06,47.30,947.90,84.00,51314.60,-TA--- REL=11000011,141332,A,4613.4937,N,721.5833,E,0.02,187.32,260924.00,3.21,E,23.86,52.31,23.04,55.71,23.41,53.87,1.00,13.00,0.87,502.42,M,47.25,141332,142.06,T,-0.52,0.20,0.00,0.09,0.08,19.90,1.00,7976.00,7954.00,1.03,23.20,940.00,18.00,11.71,0.00,0.00,1.00,0.00,2.46,2.19,2.58,564253.00,783215.00,536937.00,781667.00,514391.00,777954.00
240926-141516 2.00,0.00,0.00,24.90,947.00,200.00,11.81,256.00,0.05,148.00,-0.03,0.04,0.02,22.56,64.93,948.72,27.20,0.70,265.00,56.00,1.00,348.00,22.00,123.00,503.00,111.00,65.00,62.00,21.00,17.00,3.00,1.00,0.00,0.00,24.06,47.11,947.85,82.90,51316.60,-TA--- REL=11000011,141332,A,4613.4937,N,721.5833,E,0.02,187.32,260924.00,3.21,E,23.88,52.30,23.04,55.72,23.42,53.79,1.00,13.00,0.87,502.42,M,47.25,141332,142.06,T,-0.52,0.20,0.00,0.09,0.08,19.90,1.00,7976.00,7954.00,1.03,23.20,940.00,18.00,11.71,0.00,0.00,1.00,0.00,2.46,2.19,2.75,564253.00,783215.00,536937.00,781667.00,514391.00,777954.00
240926-141518 2.00,0.00,0.00,24.90,947.00,200.00,11.81,256.00,0.11,147.00,-0.06,0.09,0.01,22.13,66.76,948.72,27.20,0.70,265.00,56.00,1.00,195.00,40.00,123.00,544.00,152.00,70.00,55.00,42.00,9.00,5.00,0.00,0.00,0.00,24.06,47.15,947.90,83.40,51318.70,-TA--- REL=11000011,141333,A,4613.4937,N,721.5833,E,0.02,187.32,260924.00,3.21,E,23.86,52.27,23.04,55.74,23.42,53.75,1.00,12.00,1.05,502.47,M,47.25,141332,142.06,T,-0.52,0.20,0.00,0.09,0.08,19.90,1.00,7976.00,7954.00,1.03,23.20,940.00,18.00,11.71,0.00,0.00,1.00,0.00,2.46,2.19,2.75,562900.00,783215.00,536937.00,781667.00,514391.00,777954.00
240926-141520 2.00,0.00,0.00,24.90,947.00,200.00,11.81,256.00,0.08,139.00,-0.05,0.05,0.02,22.43,65.50,948.73,27.20,0.70,264.00,56.00,1.00,341.00,25.00,123.00,436.00,127.00,80.00,44.00,30.00,7.00,4.00,0.00,0.00,0.00,24.05,47.14,947.90,84.00,51320.80,-TA--- REL=11000011,141333,A,4613.4937,N,721.5833,E,0.02,187.32,260924.00,3.21,E,23.86,52.28,23.04,55.72,23.42,53.68,1.00,12.00,1.05,502.47,M,47.25,141333,142.06,T,-0.52,0.20,0.00,0.09,0.08,19.98,1.00,7976.00,7954.00,1.03,23.20,940.00,18.00,11.71,0.00,0.00,1.00,0.00,2.46,2.19,2.75,562900.00,781315.00,536937.00,781667.00,514391.00,777954.00
240926-141522 2.00,0.00,0.00,24.90,947.00,200.00,11.81,256.00,0.11,143.00,-0.06,0.09,0.01,22.04,67.08,948.72,27.20,0.70,263.00,56.00,1.00,182.00,40.00,123.00,544.00,143.00,83.00,39.00,28.00,10.00,2.00,1.00,0.00,0.00,24.05,47.14,947.90,83.40,51322.80,-TA--- REL=11000011,141334,A,4613.4937,N,721.5833,E,0.03,16.60,260924.00,3.21,E,23.86,52.31,23.03,55.73,23.42,53.67,1.00,12.00,1.05,502.47,M,47.25,141333,142.06,T,-0.52,0.20,0.00,0.09,0.08,19.98,1.00,7976.00,7954.00,1.03,23.20,940.00,18.00,11.71,0.00,0.00,1.00,0.00,2.46,2.19,2.75,562900.00,781315.00,536347.00,781667.00,514391.00,777954.00
240926-141524 2.00,0.00,0.00,24.90,947.00,200.00,11.81,256.00,0.09,153.00,-0.04,0.08,0.01,22.01,67.30,948.72,27.20,0.70,264.00,56.00,1.00,344.00,24.00,123.00,525.00,146.00,59.00,39.00,36.00,18.00,0.00,2.00,0.00,0.00,24.06,47.14,947.90,83.40,51324.90,-TA--- REL=11000011,141334,A,4613.4937,N,721.5833,E,0.03,16.60,260924.00,3.21,E,23.88,52.36,23.06,55.72,23.45,53.65,1.00,12.00,1.05,502.52,M,47.25,141333,142.06,T,-0.52,0.20,0.00,0.09,0.08,19.98,1.00,7976.00,7954.00,1.03,23.20,940.00,18.00,11.71,0.00,0.00,1.00,0.00,2.46,2.19,2.75,562900.00,781315.00,536347.00,780801.00,514391.00,777954.00
240926-141526 2.00,0.00,0.00,24.90,947.00,200.00,11.81,256.00,0.12,150.00,-0.06,0.11,-0.00,22.05,67.01,948.72,27.20,0.70,265.00,56.00,1.00,220.00,37.00,123.00,568.00,128.00,86.00,47.00,31.00,7.00,2.00,2.00,0.00,0.00,24.05,47.16,947.92,83.40,51326.90,-TA--- REL=11000011,141334,A,4613.4937,N,721.5833,E,0.03,16.60,260924.00,3.21,E,23.85,52.35,23.01,55.76,23.43,53.65,1.00,12.00,1.05,502.52,M,47.25,141334,142.06,T,-0.52,0.20,0.00,0.09,0.08,19.94,1.00,7976.00,7954.00,1.03,23.20,940.00,18.00,11.71,0.00,0.00,1.00,0.00,2.46,2.19,2.75,562900.00,781315.00,536347.00,780801.00,513778.00,777954.00
240926-141528 2.00,0.00,0.00,24.90,947.00,200.00,11.81,256.00,0.07,172.00,-0.01,0.06,0.00,22.49,65.18,948.72,27.30,0.70,265.00,56.00,1.00,507.00,17.00,123.00,382.00,122.00,77.00,42.00,27.00,17.00,1.00,0.00,0.00,0.00,24.05,47.16,947.89,83.40,51329.00,-TA--- REL=11000011,141335,A,4613.4937,N,721.5833,E,0.04,8.12,260924.00,3.21,E,23.86,52.33,23.01,55.76,23.42,53.65,1.00,12.00,1.05,502.52,M,47.25,141334,142.06,T,-0.52,0.20,0.00,0.09,0.08,19.94,1.00,7976.00,7954.00,1.03,23.20,940.00,18.00,11.71,0.00,0.00,1.00,0.00,2.46,2.19,2.75,562900.00,781315.00,536347.00,780801.00,513778.00,777014.00
240926-141531 2.00,0.00,0.00,24.90,947.00,200.00,11.82,256.00,0.10,143.00,-0.06,0.08,-0.01,21.93,67.55,948.72,27.20,0.70,265.00,56.00,1.00,196.00,34.00,123.00,561.00,135.00,72.00,44.00,32.00,13.00,5.00,1.00,0.00,0.00,24.05,47.18,947.89,81.80,51331.00,-TA--- REL=11000011,141335,A,4613.4937,N,721.5833,E,0.04,8.12,260924.00,3.21,E,23.86,52.37,23.03,55.80,23.42,53.68,1.00,12.00,1.05,502.59,M,47.25,141334,142.06,T,-0.52,0.20,0.00,0.09,0.08,19.94,1.00,7976.00,7954.00,1.03,23.20,940.00,18.00,11.71,0.00,0.00,1.00,0.00,2.46,2.19,2.75,562900.00,781315.00,536347.00,780801.00,513778.00,777014.00
240926-141533 2.00,0.00,0.00,24.90,947.00,200.00,11.81,256.00,0.10,159.00,-0.04,0.10,-0.01,21.76,68.21,948.72,27.20,0.70,264.00,56.00,1.00,422.00,20.00,123.00,459.00,129.00,69.00,54.00,37.00,12.00,2.00,2.00,0.00,0.00,24.05,47.20,947.86,82.90,51333.10,-TA--- REL=11000011,141335,A,4613.4937,N,721.5833,E,0.04,8.12,260924.00,3.21,E,23.91,52.38,23.01,55.84,23.39,53.69,1.00,12.00,1.05,502.59,M,47.25,141335,142.06,T,-0.52,0.21,0.00,0.08,0.08,20.02,1.00,7975.00,7954.00,1.03,23.20,940.00,18.00,11.71,0.00,0.00,1.00,0.00,2.46,2.19,2.75,562900.00,781315.00,536347.00,780801.00,513778.00,777014.00
240926-141535 2.00,0.00,0.00,24.90,947.00,200.00,11.81,256.00,0.07,174.00,-0.01,0.07,-0.01,21.94,67.54,948.72,27.20,0.70,264.00,56.00,1.00,244.00,31.00,123.00,461.00,127.00,61.00,33.00,35.00,15.00,4.00,2.00,0.00,0.00,24.05,47.21,947.83,83.40,51335.20,-TA--- REL=11000011,141336,A,4613.4937,N,721.5833,E,0.04,12.85,260924.00,3.21,E,23.91,52.35,23.01,55.79,23.35,53.82,1.00,12.00,1.05,502.59,M,47.25,141335,142.06,T,-0.52,0.21,0.00,0.08,0.08,20.02,1.00,7975.00,7953.00,1.03,23.20,940.00,18.00,11.71,0.00,0.00,1.00,0.00,2.46,2.19,2.75,562900.00,781315.00,536347.00,780801.00,513778.00,777014.00
240926-141537 2.00,0.00,0.00,24.90,947.00,200.00,11.81,256.00,0.07,158.00,-0.03,0.07,0.01,22.08,66.95,948.71,27.20,0.70,265.00,56.00,1.00,228.00,32.00,123.00,559.00,146.00,85.00,48.00,32.00,13.00,2.00,2.00,0.00,0.00,24.05,47.21,947.94,84.00,51337.20,-TA--- REL=11000011,141336,A,4613.4937,N,721.5833,E,0.04,12.85,260924.00,3.21,E,23.89,52.30,23.03,55.80,23.32,53.86,1.00,12.00,1.05,502.66,M,47.25,141335,142.06,T,-0.52,0.21,0.00,0.08,0.08,20.02,1.00,7975.00,7953.00,0.94,23.20,940.00,18.00,11.71,0.00,0.00,1.00,0.00,2.46,2.19,2.75,562900.00,781315.00,536347.00,780801.00,513778.00,777014.00
240926-141539 2.00,0.00,0.00,24.90,947.00,200.00,11.81,256.00,0.05,217.00,0.03,0.03,0.02,23.58,61.04,948.72,27.20,0.70,263.00,56.00,1.00,336.00,26.00,124.00,631.00,133.00,87.00,47.00,46.00,13.00,2.00,2.00,0.00,0.00,24.04,47.23,947.84,82.30,51339.30,-TA--- REL=11000011,141336,A,4613.4937,N,721.5833,E,0.04,12.85,260924.00,3.21,E,23.86,52.33,23.01,55.83,23.38,53.92,1.00,12.00,1.05,502.66,M,47.25,141336,142.06,T,-0.53,0.21,0.00,0.08,0.08,19.97,1.00,7975.00,7953.00,0.94,23.20,940.00,18.00,11.71,0.00,0.00,1.00,0.00,2.46,2.19,2.75,562900.00,781315.00,536347.00,780801.00,513778.00,777014.00
240926-141541 2.00,0.00,0.00,24.90,947.00,200.00,11.81,256.00,0.07,201.00,0.02,0.06,-0.01,23.06,63.06,948.72,27.20,0.70,265.00,56.00,1.00,268.00,35.00,123.00,709.00,133.00,80.00,53.00,40.00,14.00,6.00,3.00,0.00,0.00,24.03,47.26,947.94,84.00,51341.40,-TA--- REL=11000011,141337,A,4613.4937,N,721.5833,E,0.07,12.20,260924.00,3.21,E,23.81,52.39,23.03,55.80,23.39,53.90,1.00,12.00,1.05,502.66,M,47.25,141336,142.06,T,-0.53,0.21,0.00,0.08,0.08,19.97,1.00,7975.00,7953.00,0.94,23.20,940.00,18.00,11.71,0.00,0.00,1.00,0.00,2.46,2.19,2.75,562900.00,781315.00,536347.00,780801.00,513778.00,777014.00
240926-141543 2.00,0.00,0.00,24.90,947.00,200.00,11.80,256.00,0.04,223.00,0.03,0.03,0.01,23.68,60.68,948.72,27.20,0.70,264.00,56.00,1.00,431.00,24.00,123.00,521.00,136.00,72.00,51.00,45.00,17.00,3.00,4.00,0.00,0.00,24.03,47.28,947.83,82.90,51343.40,-TA--- REL=11000011,141337,A,4613.4937,N,721.5833,E,0.07,12.20,260924.00,3.21,E,23.77,52.48,23.01,55.85,23.42,53.89,1.00,12.00,1.05,502.75,M,47.25,141336,142.06,T,-0.53,0.21,0.00,0.08,0.08,19.97,1.00,7975.00,7953.00,0.94,23.20,940.00,20.00,11.71,0.00,0.00,1.00,0.00,2.46,2.19,2.75,562900.00,781315.00,536347.00,780801.00,513778.00,777014.00
240926-141545 2.00,0.00,0.00,24.90,947.00,200.00,11.81,256.00,0.05,199.00,0.01,0.04,0.03,23.60,60.95,948.72,27.20,0.70,264.00,56.00,1.00,218.00,39.00,123.00,451.00,128.00,83.00,51.00,31.00,13.00,2.00,0.00,0.00,0.00,24.03,47.29,947.94,83.40,51345.50,-TA--- REL=11000011,141337,A,4613.4937,N,721.5833,E,0.07,12.20,260924.00,3.21,E,23.77,52.52,23.03,55.86,23.43,53.89,1.00,12.00,1.05,502.75,M,47.25,141337,142.07,T,-0.52,0.20,0.00,0.09,0.08,20.05,1.00,7975.00,7953.00,0.94,23.20,940.00,20.00,11.69,0.00,0.00,1.00,0.00,2.46,2.19,2.75,562900.00,781315.00,536347.00,780801.00,513778.00,777014.00
240926-141547 2.00,0.00,0.00,24.90,947.00,200.00,11.80,256.00,0.03,249.00,0.02,0.01,0.02,23.21,62.40,948.72,27.20,0.70,264.00,56.00,1.00,298.00,25.00,123.00,534.00,129.00,68.00,39.00,34.00,13.00,3.00,2.00,0.00,0.00,24.03,47.31,947.88,82.90,51347.50,-TA--- REL=11000011,141338,A,4613.4941,N,721.5833,E,0.09,12.26,260924.00,3.21,E,23.74,52.68,23.03,55.87,23.46,53.78,1.00,12.00,1.05,502.75,M,47.25,141337,142.07,T,-0.52,0.20,0.00,0.09,0.08,20.05,1.00,7975.00,7953.00,0.94,23.20,940.00,20.00,11.69,0.00,0.00,1.00,0.00,2.46,2.19,2.75,562900.00,781315.00,536347.00,780801.00,513778.00,777014.00
240926-141549 2.00,0.00,0.00,24.90,947.00,200.00,11.80,256.00,0.05,214.00,0.02,0.04,0.02,23.33,62.00,948.71,27.20,0.70,263.00,56.00,1.00,208.00,39.00,123.00,397.00,135.00,63.00,42.00,31.00,4.00,2.00,1.00,0.00,0.00,24.02,47.30,947.79,82.90,51349.60,-TA--- REL=11000011,141338,A,4613.4941,N,721.5833,E,0.09,12.26,260924.00,3.21,E,23.75,52.73,23.01,55.85,23.50,53.73,1.00,13.00,0.87,502.82,M,47.25,141337,142.07,T,-0.52,0.20,0.00,0.09,0.08,20.05,1.00,7975.00,7953.00,0.94,23.20,940.00,20.00,11.69,0.00,0.00,1.00,0.00,2.46,2.19,2.75,562900.00,781315.00,536347.00,780801.00,513778.00,777014.00
240926-141551 2.00,0.00,0.00,25.00,947.00,0.00,11.87,256.00,0.06,172.00,-0.01,0.06,0.01,23.07,62.97,948.72,27.20,0.70,264.00,56.00,1.00,381.00,17.00,123.00,499.00,132.00,69.00,39.00,33.00,9.00,3.00,2.00,0.00,0.00,24.04,47.30,947.82,84.00,51351.70,-TA--- REL=11000011,141338,A,4613.4941,N,721.5833,E,0.09,12.26,260924.00,3.21,E,23.75,52.76,23.03,55.86,23.50,53.73,1.00,13.00,0.87,502.82,M,47.25,141338,142.07,T,-0.52,0.21,0.00,0.09,0.08,20.01,1.00,7975.00,7953.00,0.94,23.20,940.00,20.00,11.69,0.00,0.00,1.00,0.00,2.46,2.19,2.75,562900.00,781315.00,536347.00,780801.00,513778.00,777014.00
240926-141553 2.00,0.00,0.00,24.90,947.00,0.00,11.87,256.00,0.03,137.00,-0.02,0.02,0.01,22.88,63.68,948.72,27.20,0.70,265.00,56.00,1.00,213.00,36.00,123.00,514.00,121.00,65.00,57.00,30.00,12.00,4.00,0.00,0.00,0.00,24.03,47.30,947.86,84.50,51353.70,-TA--- REL=11000011,141339,A,4613.4941,N,721.5833,E,0.11,11.86,260924.00,3.21,E,23.74,52.76,23.03,55.85,23.53,53.67,1.00,13.00,0.87,502.82,M,47.25,141338,142.07,T,-0.52,0.21,0.00,0.09,0.08,20.01,1.00,7975.00,7953.00,0.99,23.20,940.00,20.00,11.69,0.00,0.00,1.00,0.00,2.46,2.19,2.75,562900.00,781315.00,536347.00,780801.00,513778.00,777014.00
240926-141555 2.00,0.00,0.00,24.90,947.00,0.00,11.87,256.00,0.04,150.00,-0.02,0.03,0.01,22.50,65.32,948.72,27.20,0.70,264.00,56.00,1.00,412.00,19.00,123.00,506.00,105.00,49.00,46.00,25.00,13.00,1.00,2.00,0.00,0.00,24.03,47.31,947.84,83.40,51355.80,-TA--- REL=11000011,141339,A,4613.4941,N,721.5833,E,0.11,11.86,260924.00,3.21,E,23.74,52.73,23.07,55.83,23.52,53.53,1.00,14.00,0.85,502.90,M,47.25,141338,142.07,T,-0.52,0.21,0.00,0.09,0.08,20.01,1.00,7975.00,7953.00,0.99,23.20,940.00,20.00,11.69,0.00,0.00,1.00,0.00,2.46,2.19,2.75,562900.00,781315.00,536347.00,780801.00,513778.00,777014.00
240926-141557 2.00,0.00,0.00,24.90,947.00,0.00,11.87,256.00,0.05,68.00,-0.05,-0.02,0.01,23.22,62.47,948.72,27.20,0.70,265.00,56.00,1.00,230.00,32.00,123.00,491.00,147.00,69.00,39.00,34.00,12.00,1.00,0.00,0.00,0.00,24.03,47.33,947.86,83.40,51357.80,-TA--- REL=11000011,141339,A,4613.4941,N,721.5833,E,0.11,11.86,260924.00,3.21,E,23.74,52.79,23.03,55.79,23.52,53.53,1.00,14.00,0.85,502.90,M,47.25,141339,142.08,T,-0.52,0.21,0.00,0.09,0.08,19.97,1.00,7975.00,7953.00,0.99,23.20,940.00,20.00,11.69,0.00,0.00,1.00,0.00,2.46,2.19,2.75,562900.00,781315.00,536347.00,780801.00,513778.00,777014.00
240926-141559 2.00,0.00,0.00,24.90,947.00,0.00,11.87,256.00,0.03,100.00,-0.03,0.01,0.01,22.83,64.03,948.72,27.20,0.70,263.00,56.00,1.00,288.00,27.00,123.00,471.00,141.00,84.00,42.00,31.00,13.00,2.00,1.00,0.00,0.00,24.03,47.34,947.86,83.40,51359.90,-TA--- REL=11000011,141340,A,4613.4941,N,721.5832,E,0.12,9.36,260924.00,3.21,E,23.75,52.79,23.04,55.78,23.55,53.52,1.00,14.00,0.85,502.90,M,47.25,141339,142.08,T,-0.52,0.21,0.00,0.09,0.08,19.97,1.00,7975.00,7953.00,0.99,23.20,940.00,20.00,11.69,0.00,0.00,1.00,0.00,2.46,2.19,2.75,562900.00,781315.00,536347.00,780801.00,513778.00,777014.00
240926-141601 2.00,0.00,0.00,24.90,947.00,0.00,11.87,256.00,0.03,9.00,-0.00,-0.02,0.01,23.18,62.49,948.72,27.20,0.70,264.00,56.00,1.00,268.00,29.00,124.00,392.00,115.00,61.00,54.00,31.00,7.00,5.00,2.00,0.00,0.00,24.03,47.35,947.88,82.90,51362.00,-TA--- REL=11000011,141340,A,4613.4941,N,721.5832,E,0.12,9.36,260924.00,3.21,E,23.75,52.89,23.03,55.82,23.57,53.47,1.00,14.00,0.85,502.96,M,47.25,141339,142.08,T,-0.52,0.21,0.00,0.09,0.08,19.97,1.00,7975.00,7953.00,0.99,23.20,940.00,20.00,11.63,0.00,0.00,1.00,0.00,2.46,2.19,2.75,562900.00,781315.00,536347.00,780801.00,513778.00,777014.00
240926-141604 2.00,0.00,0.00,24.90,947.00,0.00,11.87,256.00,0.03,239.00,0.02,0.01,0.02,23.71,60.69,948.72,27.20,0.70,264.00,56.00,1.00,186.00,35.00,123.00,476.00,119.00,66.00,45.00,26.00,15.00,2.00,0.00,0.00,0.00,24.03,47.34,947.89,84.50,51364.00,-TA--- REL=11000011,141340,A,4613.4941,N,721.5832,E,0.12,9.36,260924.00,3.21,E,23.77,52.86,23.04,55.88,23.56,53.48,1.00,14.00,0.85,502.96,M,47.25,141340,142.09,T,-0.52,0.21,0.00,0.09,0.08,19.93,1.00,7975.00,7953.00,0.99,23.20,940.00,20.00,11.63,0.00,0.00,1.00,0.00,2.46,2.19,2.75,562900.00,781315.00,536347.00,780801.00,513778.00,777014.00
240926-141606 2.00,0.00,0.00,24.90,947.00,0.00,11.87,256.00,0.07,178.00,-0.00,0.07,-0.00,22.40,65.56,948.72,27.20,0.70,263.00,56.00,1.00,271.00,27.00,123.00,497.00,119.00,61.00,50.00,27.00,12.00,0.00,2.00,0.00,0.00,24.02,47.35,947.84,84.50,51366.10,-TA--- REL=11000011,141341,A,4613.4941,N,721.5832,E,0.14,5.79,260924.00,3.21,E,23.74,52.84,23.04,55.84,23.56,53.49,1.00,14.00,0.85,502.96,M,47.25,141340,142.09,T,-0.52,0.21,0.00,0.09,0.08,19.93,1.00,7975.00,7953.00,0.99,23.20,940.00,20.00,11.63,0.00,0.00,1.00,0.00,2.46,2.19,2.75,562900.00,781315.00,536347.00,780801.00,513778.00,777014.00
240926-141608 2.00,0.00,0.00,24.90,947.00,0.00,11.87,256.00,0.05,178.00,-0.00,0.05,0.01,22.57,64.89,948.71,27.30,0.70,264.00,56.00,1.00,279.00,27.00,123.00,503.00,116.00,69.00,52.00,36.00,17.00,6.00,2.00,0.00,0.00,24.03,47.34,947.91,82.30,51368.10,-TA--- REL=11000011,141341,A,4613.4941,N,721.5832,E,0.14,5.79,260924.00,3.21,E,23.74,52.85,23.06,55.87,23.50,53.54,1.00,12.00,1.05,503.05,M,47.25,141340,142.09,T,-0.52,0.21,0.00,0.09,0.08,19.93,1.00,7975.00,7953.00,0.99,23.20,940.00,20.00,11.63,0.00,0.00,1.00,0.00,2.46,2.19,2.75,562900.00,781315.00,536347.00,780801.00,513778.00,777014.00
240926-141610 2.00,0.00,0.00,24.90,947.00,0.00,11.87,256.00,0.05,170.00,-0.01,0.05,0.01,23.07,63.01,948.71,27.20,0.70,264.00,56.00,1.00,235.00,34.00,123.00,488.00,133.00,75.00,52.00,28.00,11.00,3.00,0.00,0.00,0.00,24.03,47.35,947.88,84.50,51370.20,-TA--- REL=11000011,141341,A,4613.4941,N,721.5832,E,0.14,5.79,260924.00,3.21,E,23.75,52.85,23.04,55.88,23.55,53.55,1.00,12.00,1.05,503.05,M,47.25,141341,142.09,T,-0.52,0.21,0.00,0.09,0.08,19.93,1.00,7975.00,7953.00,0.99,23.20,940.00,20.00,11.63,0.00,0.00,1.00,0.00,2.46,2.19,2.75,562900.00,781315.00,536347.00,780801.00,513778.00,777014.00
240926-141612 2.00,0.00,0.00,24.90,947.00,0.00,11.87,256.00,0.05,209.00,0.03,0.04,0.01,23.37,61.82,948.71,27.20,0.70,263.00,56.00,1.00,404.00,19.00,124.00,401.00,127.00,63.00,54.00,34.00,9.00,5.00,1.00,0.00,0.00,24.03,47.36,947.86,84.00,51372.30,-TA--- REL=11000011,141516,A,4613.4976,N,721.5828,E,0.04,345.08,260924.00,3.21,E,23.75,52.85,23.06,55.89,23.53,53.61,1.00,12.00,1.05,503.05,M,47.25,141341,142.09,T,-0.52,0.21,0.00,0.09,0.08,19.93,1.00,7975.00,7953.00,0.99,23.20,940.00,20.00,11.63,0.00,0.00,1.00,0.00,2.46,2.19,2.75,562900.00,781315.00,536347.00,780801.00,513778.00,777014.00
240926-141614 2.00,0.00,0.00,25.00,947.00,0.00,11.87,256.00,0.05,147.00,-0.02,0.04,0.01,23.50,61.26,948.71,27.20,0.70,263.00,56.00,1.00,216.00,32.00,123.00,411.00,150.00,85.00,51.00,42.00,13.00,2.00,0.00,0.00,0.00,24.03,47.35,947.84,82.90,51374.30,-TA--- REL=11000011,141516,A,4613.4976,N,721.5828,E,0.04,345.08,260924.00,3.21,E,23.78,52.82,23.07,55.85,23.49,53.71,1.00,14.00,0.85,507.08,M,47.25,141341,142.09,T,-0.52,0.21,0.00,0.09,0.08,19.93,1.00,7975.00,7953.00,0.99,23.20,940.00,20.00,11.63,0.00,0.00,1.00,0.00,7.74,2.19,2.75,562900.00,781315.00,536347.00,780801.00,513778.00,777014.00
240926-141616 2.00,0.00,0.00,25.00,947.00,0.00,11.87,256.00,0.07,109.00,-0.06,0.02,0.00,23.02,63.19,948.72,27.20,0.70,264.00,56.00,1.00,260.00,28.00,123.00,563.00,151.00,78.00,52.00,45.00,13.00,3.00,1.00,0.00,0.00,24.03,47.33,947.83,84.00,51376.40,-TA--- REL=11000011,141516,A,4613.4976,N,721.5828,E,0.04,345.08,260924.00,3.21,E,23.77,52.76,23.06,55.88,23.52,53.85,1.00,14.00,0.85,507.08,M,47.25,141516,141.87,T,-0.50,0.20,0.00,0.08,0.08,20.05,1.00,7975.00,7953.00,0.99,23.20,940.00,20.00,11.63,0.00,0.00,1.00,0.00,7.74,7.11,2.75,562900.00,781315.00,536347.00,780801.00,513778.00,777014.00
240926-141618 2.00,0.00,0.00,25.00,947.00,0.00,11.88,256.00,0.08,94.00,-0.07,0.01,0.02,22.63,64.57,948.71,27.20,0.70,263.00,56.00,1.00,309.00,29.00,123.00,455.00,133.00,83.00,50.00,34.00,8.00,5.00,1.00,0.00,0.00,24.03,47.31,947.84,84.00,51378.40,-TA--- REL=11000011,141517,A,4613.4976,N,721.5828,E,0.02,3.33,260924.00,3.21,E,23.77,52.75,23.06,55.88,23.50,53.89,1.00,14.00,0.85,507.08,M,47.25,141516,141.87,T,-0.50,0.20,0.00,0.08,0.08,20.05,1.00,7975.00,7953.00,0.99,23.20,940.00,20.00,11.63,0.00,0.00,1.00,0.00,7.74,7.11,9.00,562900.00,781315.00,536347.00,780801.00,513778.00,777014.00
240926-141620 2.00,0.00,0.00,25.00,947.00,0.00,11.88,256.00,0.02,109.00,-0.02,0.01,0.00,22.49,65.23,948.71,27.20,0.70,264.00,56.00,1.00,216.00,35.00,123.00,587.00,131.00,95.00,55.00,30.00,17.00,2.00,3.00,0.00,0.00,24.04,47.30,947.84,84.00,51380.50,-TA--- REL=11000011,141517,A,4613.4976,N,721.5828,E,0.02,3.33,260924.00,3.21,E,23.77,52.68,23.04,55.84,23.50,53.90,1.00,14.00,0.85,507.14,M,47.25,141516,141.87,T,-0.50,0.20,0.00,0.08,0.08,20.05,1.00,7975.00,7953.00,0.99,23.20,940.00,20.00,11.63,0.00,0.00,1.00,0.00,7.74,7.11,9.00,558322.00,781315.00,536347.00,780801.00,513778.00,777014.00
240926-141622 2.00,0.00,0.00,24.90,947.00,0.00,11.87,256.00,0.05,138.00,-0.04,0.04,-0.00,22.24,66.23,948.70,27.20,0.70,264.00,56.00,1.00,339.00,27.00,123.00,470.00,136.00,68.00,45.00,29.00,13.00,6.00,0.00,0.00,0.00,24.04,47.28,947.87,84.00,51382.50,-TA--- REL=11000011,141517,A,4613.4976,N,721.5828,E,0.02,3.33,260924.00,3.21,E,23.79,52.67,23.06,55.81,23.50,53.78,1.00,14.00,0.85,507.14,M,47.25,141517,141.87,T,-0.51,0.20,0.00,0.08,0.08,19.91,1.00,7975.00,7953.00,0.99,23.20,940.00,20.00,11.63,0.00,0.00,1.00,0.00,7.74,7.11,9.00,558322.00,774993.00,536347.00,780801.00,513778.00,777014.00
240926-141624 2.00,0.00,0.00,24.90,947.00,0.00,11.87,256.00,0.05,155.00,-0.02,0.04,0.01,22.45,65.36,948.70,27.20,0.70,263.00,56.00,1.00,204.00,37.00,124.00,464.00,131.00,79.00,47.00,31.00,20.00,4.00,2.00,0.00,0.00,24.03,47.26,947.86,84.50,51384.60,-TA--- REL=11000011,141518,A,4613.4976,N,721.5828,E,0.01,11.06,260924.00,3.21,E,23.82,52.64,23.01,55.80,23.49,53.67,1.00,14.00,0.85,507.14,M,47.25,141517,141.87,T,-0.51,0.20,0.00,0.08,0.08,19.91,1.00,7975.00,7953.00,0.99,23.20,940.00,20.00,11.63,0.00,0.00,1.00,0.00,7.74,7.11,9.00,558322.00,774993.00,534213.00,780801.00,513778.00,777014.00
240926-141626 2.00,0.00,0.00,24.90,947.00,0.00,11.87,256.00,0.06,195.00,0.02,0.06,0.00,23.12,62.78,948.71,27.20,0.70,263.00,56.00,1.00,285.00,27.00,124.00,477.00,142.00,72.00,43.00,45.00,24.00,4.00,1.00,0.00,0.00,24.04,47.26,947.87,84.00,51386.70,-TA--- REL=11000011,141518,A,4613.4976,N,721.5828,E,0.01,11.06,260924.00,3.21,E,23.84,52.54,23.04,55.77,23.49,53.66,1.00,14.00,0.85,507.22,M,47.25,141517,141.87,T,-0.51,0.20,0.00,0.08,0.08,19.91,1.00,7975.00,7953.00,0.99,23.20,940.00,20.00,11.63,0.00,0.00,1.00,0.00,7.74,7.11,9.00,558322.00,774993.00,534213.00,777801.00,513778.00,777014.00
240926-141628 2.00,0.00,0.00,24.90,947.00,0.00,11.88,256.00,0.08,147.00,-0.04,0.06,0.01,22.94,63.47,948.71,27.20,0.70,263.00,56.00,1.00,225.00,35.00,124.00,588.00,149.00,83.00,43.00,41.00,8.00,3.00,2.00,0.00,0.00,24.03,47.21,947.78,84.00,51388.70,-TA--- REL=11000011,141518,A,4613.4976,N,721.5828,E,0.01,11.06,260924.00,3.21,E,23.81,52.55,23.06,55.79,23.52,53.60,1.00,14.00,0.85,507.22,M,47.25,141518,141.88,T,-0.51,0.20,0.00,0.08,0.08,19.89,1.00,7975.00,7953.00,0.99,23.20,940.00,20.00,11.63,0.00,0.00,1.00,0.00,7.74,7.11,9.00,558322.00,774993.00,534213.00,777801.00,512378.00,777014.00
240926-141630 2.00,0.00,0.00,24.90,947.00,0.00,11.87,256.00,0.06,145.00,-0.03,0.05,0.00,22.49,65.23,948.71,27.20,0.70,264.00,56.00,1.00,329.00,27.00,124.00,543.00,152.00,70.00,49.00,42.00,18.00,4.00,1.00,0.00,0.00,24.04,47.20,947.87,84.00,51390.80,-TA--- REL=11000011,141519,A,4613.4976,N,721.5828,E,0.03,329.35,260924.00,3.21,E,23.81,52.54,23.04,55.79,23.50,53.57,1.00,14.00,0.85,507.22,M,47.25,141518,141.88,T,-0.51,0.20,0.00,0.08,0.08,19.89,1.00,7975.00,7953.00,0.99,23.20,940.00,20.00,11.63,0.00,0.00,1.00,0.00,7.74,7.11,9.00,558322.00,774993.00,534213.00,777801.00,512378.00,775004.00
240926-141632 2.00,0.00,0.00,24.80,947.00,0.00,11.88,256.00,0.05,72.00,-0.05,-0.02,0.00,22.62,64.73,948.71,27.20,0.70,263.00,56.00,1.00,262.00,33.00,124.00,532.00,170.00,66.00,51.00,30.00,16.00,1.00,1.00,0.00,0.00,24.05,47.19,947.83,85.10,51392.80,-TA--- REL=11000011,141519,A,4613.4976,N,721.5828,E,0.03,329.35,260924.00,3.21,E,23.79,52.55,23.06,55.75,23.52,53.57,1.00,14.00,0.85,507.29,M,47.25,141518,141.88,T,-0.51,0.20,0.00,0.08,0.08,19.89,1.00,7975.00,7953.00,0.99,23.20,940.00,20.00,11.63,0.00,0.00,1.00,0.00,7.74,7.11,9.00,558322.00,774993.00,534213.00,777801.00,512378.00,775004.00
240926-141634 2.00,0.00,0.00,24.80,947.00,0.00,11.87,256.00,0.10,88.00,-0.10,-0.00,0.00,22.25,66.25,948.71,27.20,0.70,264.00,56.00,1.00,315.00,27.00,124.00,562.00,155.00,83.00,46.00,28.00,15.00,0.00,1.00,0.00,0.00,24.05,47.18,947.87,82.30,51394.90,-TA--- REL=11000011,141519,A,4613.4976,N,721.5828,E,0.03,329.35,260924.00,3.21,E,23.79,52.62,23.07,55.73,23.48,53.62,1.00,14.00,0.85,507.29,M,47.25,141519,141.88,T,-0.51,0.20,0.00,0.08,0.08,19.98,1.00,7974.00,7953.00,0.99,23.20,940.00,20.00,11.63,0.00,0.00,1.00,0.00,7.74,7.11,9.00,558322.00,774993.00,534213.00,777801.00,512378.00,775004.00
240926-141636 2.00,0.00,0.00,24.80,947.00,0.00,11.87,256.00,0.07,144.00,-0.04,0.05,0.00,21.89,67.65,948.71,27.20,0.70,264.00,56.00,1.00,242.00,36.00,124.00,522.00,132.00,64.00,51.00,29.00,14.00,0.00,0.00,0.00,0.00,24.06,47.20,947.91,84.50,51397.00,-TA--- REL=11000011,141520,A,4613.4980,N,721.5828,E,0.03,318.47,260924.00,3.21,E,23.81,52.61,23.06,55.68,23.43,53.71,1.00,14.00,0.85,507.29,M,47.25,141519,141.88,T,-0.51,0.20,0.00,0.08,0.08,19.98,1.00,7974.00,7952.00,0.99,23.20,940.00,20.00,11.63,0.00,0.00,1.00,0.00,7.74,7.11,9.00,558322.00,774993.00,534213.00,777801.00,512378.00,775004.00
240926-141639 2.00,0.00,0.00,24.80,947.00,0.00,11.88,256.00,0.04,117.00,-0.04,0.02,0.00,22.23,66.25,948.71,27.20,0.70,263.00,56.00,1.00,327.00,24.00,123.00,568.00,124.00,65.00,38.00,36.00,6.00,5.00,0.00,0.00,0.00,24.05,47.20,947.90,82.90,51399.00,-TA--- REL=11000011,141520,A,4613.4980,N,721.5828,E,0.03,318.47,260924.00,3.21,E,23.84,52.56,23.03,55.71,23.41,53.74,1.00,14.00,0.85,507.34,M,47.25,141519,141.88,T,-0.51,0.20,0.00,0.08,0.08,19.98,1.00,7974.00,7952.00,1.03,23.20,940.00,20.00,11.63,0.00,0.00,1.00,0.00,7.74,7.11,9.00,558322.00,774993.00,534213.00,777801.00,512378.00,775004.00
240926-141641 2.00,0.00,0.00,24.80,947.00,0.00,11.87,256.00,0.06,72.00,-0.06,-0.02,0.02,22.29,66.05,948.71,27.20,0.70,264.00,56.00,1.00,215.00,39.00,124.00,489.00,124.00,72.00,43.00,28.00,23.00,2.00,2.00,0.00,0.00,24.05,47.23,947.78,84.50,51401.10,-TA--- REL=11000011,141520,A,4613.4980,N,721.5828,E,0.03,318.47,260924.00,3.21,E,23.85,52.56,23.01,55.80,23.39,53.78,1.00,14.00,0.85,507.34,M,47.25,141520,141.88,T,-0.51,0.21,0.00,0.08,0.08,19.96,1.00,7974.00,7952.00,1.03,23.20,940.00,20.00,11.63,0.00,0.00,1.00,0.00,7.74,7.11,9.00,558322.00,774993.00,534213.00,777801.00,512378.00,775004.00
240926-141643 2.00,0.00,0.00,24.80,947.00,0.00,11.87,256.00,0.11,125.00,-0.09,0.06,0.00,21.85,67.88,948.69,27.20,0.70,263.00,56.00,1.00,309.00,25.00,124.00,527.00,137.00,68.00,51.00,25.00,14.00,3.00,3.00,0.00,0.00,24.05,47.23,947.84,85.10,51403.10,-TA--- REL=11000011,141521,A,4613.4980,N,721.5827,E,0.03,220.56,260924.00,3.21,E,23.86,52.56,23.01,55.90,23.38,53.78,1.00,14.00,0.85,507.34,M,47.25,141520,141.88,T,-0.51,0.21,0.00,0.08,0.08,19.96,1.00,7974.00,7952.00,1.03,23.20,939.00,20.00,11.63,0.00,0.00,1.00,0.00,7.74,7.11,9.00,558322.00,774993.00,534213.00,777801.00,512378.00,775004.00
240926-141645 2.00,0.00,0.00,24.90,947.00,0.00,11.88,256.00,0.09,123.00,-0.07,0.05,-0.00,21.81,68.02,948.69,27.20,0.70,262.00,56.00,1.00,209.00,39.00,124.00,504.00,116.00,62.00,54.00,23.00,13.00,7.00,1.00,0.00,0.00,24.06,47.25,947.85,84.00,51405.20,-TA--- REL=11000011,141521,A,4613.4980,N,721.5827,E,0.03,220.56,260924.00,3.21,E,23.86,52.52,23.03,55.94,23.33,53.87,1.00,13.00,0.90,507.39,M,47.25,141520,141.88,T,-0.51,0.21,0.00,0.08,0.08,19.96,1.00,7974.00,7952.00,1.03,23.20,939.00,18.00,11.63,0.00,0.00,1.00,0.00,7.74,7.11,9.00,558322.00,774993.00,534213.00,777801.00,512378.00,775004.00
240926-141647 2.00,0.00,0.00,24.90,947.00,0.00,11.87,256.00,0.10,124.00,-0.08,0.05,0.02,21.61,68.73,948.71,27.20,0.70,263.00,56.00,1.00,398.00,19.00,123.00,498.00,130.00,86.00,38.00,41.00,17.00,6.00,1.00,0.00,0.00,24.06,47.25,947.82,82.90,51407.20,-TA--- REL=11000011,141521,A,4613.4980,N,721.5827,E,0.03,220.56,260924.00,3.21,E,23.89,52.48,23.01,55.91,23.27,54.00,1.00,13.00,0.90,507.39,M,47.25,141521,141.87,T,-0.51,0.20,0.00,0.08,0.08,19.94,1.00,7974.00,7952.00,1.03,23.20,939.00,18.00,11.63,0.00,0.00,1.00,0.00,7.74,7.11,9.00,558322.00,774993.00,534213.00,777801.00,512378.00,775004.00
240926-141649 2.00,0.00,0.00,24.90,947.00,0.00,11.87,256.00,0.06,115.00,-0.06,0.03,0.01,22.03,67.14,948.71,27.20,0.70,264.00,56.00,1.00,219.00,37.00,124.00,479.00,144.00,71.00,41.00,34.00,21.00,5.00,0.00,0.00,0.00,24.05,47.24,947.84,83.40,51409.30,-TA--- REL=11000011,141522,A,4613.4980,N,721.5827,E,0.03,195.85,260924.00,3.21,E,23.85,52.50,23.01,55.93,23.23,54.13,1.00,13.00,0.90,507.39,M,47.25,141521,141.87,T,-0.51,0.20,0.00,0.08,0.08,19.94,1.00,7974.00,7952.00,1.03,23.20,939.00,18.00,11.63,0.00,0.00,1.00,0.00,7.74,7.11,9.00,558322.00,774993.00,534213.00,777801.00,512378.00,775004.00
240926-141651 2.00,0.00,0.00,24.90,947.00,0.00,11.88,256.00,0.04,166.00,-0.01,0.04,0.02,22.17,66.62,948.70,27.20,0.70,263.00,56.00,1.00,457.00,17.00,124.00,583.00,138.00,85.00,42.00,37.00,9.00,2.00,1.00,0.00,0.00,24.05,47.25,947.89,84.00,51411.40,-TA--- REL=11000011,141522,A,4613.4980,N,721.5827,E,0.03,195.85,260924.00,3.21,E,23.85,52.51,23.00,55.94,23.18,54.25,1.00,12.00,1.25,507.47,M,47.25,141521,141.87,T,-0.51,0.20,0.00,0.08,0.08,19.94,1.00,7974.00,7952.00,1.03,23.20,939.00,18.00,11.63,0.00,0.00,1.00,0.00,7.74,7.11,9.00,558322.00,774993.00,534213.00,777801.00,512378.00,775004.00
240926-141653 2.00,0.00,0.00,24.90,947.00,0.00,11.88,256.00,0.06,171.00,-0.01,0.06,0.01,22.57,64.91,948.70,27.20,0.70,263.00,56.00,1.00,241.00,37.00,124.00,465.00,126.00,76.00,56.00,34.00,15.00,3.00,2.00,0.00,0.00,24.05,47.27,947.83,85.10,51413.40,-TA--- REL=11000011,141522,A,4613.4980,N,721.5827,E,0.03,195.85,260924.00,3.21,E,23.84,52.53,23.00,55.96,23.21,54.33,1.00,12.00,1.25,507.47,M,47.25,141522,141.87,T,-0.52,0.20,0.00,0.08,0.08,19.91,1.00,7974.00,7952.00,1.03,23.20,939.00,18.00,11.63,0.00,0.00,1.00,0.00,7.74,7.11,9.00,558322.00,774993.00,534213.00,777801.00,512378.00,775004.00
240926-141655 2.00,0.00,0.00,24.90,948.00,0.00,11.87,256.00,0.02,151.00,-0.01,0.02,0.00,22.75,64.20,948.70,27.20,0.70,263.00,56.00,1.00,434.00,17.00,124.00,476.00,143.00,74.00,49.00,42.00,20.00,3.00,0.00,0.00,0.00,24.04,47.28,947.85,83.40,51415.50,-TA--- REL=11000011,141523,A,4613.4980,N,721.5827,E,0.03,224.63,260924.00,3.21,E,23.84,52.56,22.99,56.01,23.18,54.43,1.00,12.00,1.25,507.47,M,47.25,141522,141.87,T,-0.52,0.20,0.00,0.08,0.08,19.91,1.00,7974.00,7952.00,1.03,23.20,939.00,18.00,11.63,0.00,0.00,1.00,0.00,7.74,7.11,9.00,558322.00,774993.00,534213.00,777801.00,512378.00,775004.00
240926-141657 2.00,0.00,0.00,24.90,948.00,0.00,11.88,256.00,0.02,254.00,0.02,0.01,0.00,22.89,63.67,948.70,27.20,0.70,263.00,56.00,1.00,202.00,39.00,124.00,509.00,138.00,72.00,58.00,41.00,8.00,5.00,0.00,0.00,0.00,24.04,47.29,947.88,83.40,51417.50,-TA--- REL=11000011,141523,A,4613.4980,N,721.5827,E,0.03,224.63,260924.00,3.21,E,23.86,52.52,22.99,56.01,23.22,54.49,1.00,12.00,1.25,507.56,M,47.25,141522,141.87,T,-0.52,0.20,0.00,0.08,0.08,19.91,1.00,7974.00,7952.00,1.03,23.20,939.00,18.00,11.63,0.00,0.00,1.00,0.00,7.74,7.11,9.00,558322.00,774993.00,534213.00,777801.00,512378.00,775004.00
240926-141659 2.00,0.00,0.00,24.90,947.00,0.00,11.88,256.00,0.06,189.00,0.01,0.06,0.01,23.45,61.55,948.70,27.20,0.70,263.00,56.00,1.00,455.00,18.00,124.00,522.00,144.00,82.00,54.00,44.00,11.00,4.00,0.00,0.00,0.00,24.05,47.30,947.84,84.00,51419.60,-TA--- REL=11000011,141523,A,4613.4980,N,721.5827,E,0.03,224.63,260924.00,3.21,E,23.85,52.53,22.99,56.10,23.23,54.47,1.00,12.00,1.25,507.56,M,47.25,141523,141.87,T,-0.51,0.20,0.00,0.08,0.08,20.01,1.00,7974.00,7952.00,1.03,23.20,939.00,18.00,11.63,0.00,0.00,1.00,0.00,7.91,7.11,9.00,558322.00,774993.00,534213.00,777801.00,512378.00,775004.00
